{
"type": "FeatureCollection",
"name": "healthcare_pharmacy",
"crs": { "type": "name", "properties": { "name": "urn:ogc:def:crs:OGC:1.3:CRS84" } },
"features": [
{ "type": "Feature", "properties": { "full_id": "n4410318393", "osm_id": "4410318393", "osm_type": "node", "healthcare": "pharmacy", "health_fac": null, "descriptio": null, "dispensing": null, "addr_word": null, "name": null, "addr_subur": null, "addr_count": null, "addr_city": null, "phone": null, "addr_stree": null, "name_en": "Islamia Pharmacy", "amenity": "pharmacy" }, "geometry": { "type": "Point", "coordinates": [ 90.4170682, 23.7806216 ] } },
{ "type": "Feature", "properties": { "full_id": "n4410488690", "osm_id": "4410488690", "osm_type": "node", "healthcare": "pharmacy", "health_fac": null, "descriptio": null, "dispensing": null, "addr_word": null, "name": null, "addr_subur": null, "addr_count": null, "addr_city": null, "phone": null, "addr_stree": "Gulshan Avenue", "name_en": "Tamanna Pharmacy", "amenity": "pharmacy" }, "geometry": { "type": "Point", "coordinates": [ 90.4167951, 23.7809194 ] } },
{ "type": "Feature", "properties": { "full_id": "n4422091795", "osm_id": "4422091795", "osm_type": "node", "healthcare": "pharmacy", "health_fac": null, "descriptio": null, "dispensing": null, "addr_word": null, "name": null, "addr_subur": null, "addr_count": null, "addr_city": null, "phone": null, "addr_stree": "Gulshan Avenue", "name_en": "Islamia Pharmacy", "amenity": "pharmacy" }, "geometry": { "type": "Point", "coordinates": [ 90.4168642, 23.7807571 ] } },
{ "type": "Feature", "properties": { "full_id": "n5168305621", "osm_id": "5168305621", "osm_type": "node", "healthcare": "pharmacy", "health_fac": null, "descriptio": null, "dispensing": null, "addr_word": null, "name": null, "addr_subur": null, "addr_count": null, "addr_city": null, "phone": "+8801813066936", "addr_stree": null, "name_en": "Barisal Pharmacy", "amenity": "pharmacy" }, "geometry": { "type": "Point", "coordinates": [ 90.4167916, 23.7808221 ] } },
{ "type": "Feature", "properties": { "full_id": "n5622153377", "osm_id": "5622153377", "osm_type": "node", "healthcare": "pharmacy", "health_fac": null, "descriptio": null, "dispensing": null, "addr_word": null, "name": "Comilla Pharmacy", "addr_subur": "korail", "addr_count": "BD", "addr_city": "dhaka", "phone": null, "addr_stree": null, "name_en": null, "amenity": "pharmacy" }, "geometry": { "type": "Point", "coordinates": [ 90.4114221, 23.7835926 ] } },
{ "type": "Feature", "properties": { "full_id": "n5622153442", "osm_id": "5622153442", "osm_type": "node", "healthcare": "pharmacy", "health_fac": null, "descriptio": null, "dispensing": null, "addr_word": null, "name": "Jaman Pharmacy", "addr_subur": null, "addr_count": null, "addr_city": null, "phone": null, "addr_stree": null, "name_en": null, "amenity": "pharmacy" }, "geometry": { "type": "Point", "coordinates": [ 90.4111192, 23.7843095 ] } },
{ "type": "Feature", "properties": { "full_id": "n5622153911", "osm_id": "5622153911", "osm_type": "node", "healthcare": "pharmacy", "health_fac": null, "descriptio": null, "dispensing": null, "addr_word": null, "name": "Jonono Pharmacy", "addr_subur": null, "addr_count": null, "addr_city": null, "phone": null, "addr_stree": null, "name_en": null, "amenity": "pharmacy" }, "geometry": { "type": "Point", "coordinates": [ 90.4099708, 23.7832144 ] } },
{ "type": "Feature", "properties": { "full_id": "n5622154297", "osm_id": "5622154297", "osm_type": "node", "healthcare": "pharmacy", "health_fac": null, "descriptio": null, "dispensing": null, "addr_word": null, "name": "Ma Pharmacy", "addr_subur": null, "addr_count": null, "addr_city": null, "phone": null, "addr_stree": null, "name_en": null, "amenity": "pharmacy" }, "geometry": { "type": "Point", "coordinates": [ 90.4113665, 23.7846549 ] } },
{ "type": "Feature", "properties": { "full_id": "n5622154518", "osm_id": "5622154518", "osm_type": "node", "healthcare": "pharmacy", "health_fac": null, "descriptio": null, "dispensing": null, "addr_word": null, "name": "Zafor Pharmacy", "addr_subur": "korail", "addr_count": "BD", "addr_city": "dhaka", "phone": null, "addr_stree": null, "name_en": null, "amenity": "pharmacy" }, "geometry": { "type": "Point", "coordinates": [ 90.4122619, 23.7866393 ] } },
{ "type": "Feature", "properties": { "full_id": "n5622154851", "osm_id": "5622154851", "osm_type": "node", "healthcare": "pharmacy", "health_fac": null, "descriptio": null, "dispensing": null, "addr_word": null, "name": "Kazi Pharmacy", "addr_subur": "korail", "addr_count": "BD", "addr_city": "dhaka", "phone": null, "addr_stree": null, "name_en": null, "amenity": "pharmacy" }, "geometry": { "type": "Point", "coordinates": [ 90.4130985, 23.7851096 ] } },
{ "type": "Feature", "properties": { "full_id": "n5622154857", "osm_id": "5622154857", "osm_type": "node", "healthcare": "pharmacy", "health_fac": null, "descriptio": null, "dispensing": null, "addr_word": null, "name": "Baba Mayer Doya Medical Hall", "addr_subur": "korail", "addr_count": "BD", "addr_city": "dhaka", "phone": null, "addr_stree": null, "name_en": null, "amenity": "pharmacy" }, "geometry": { "type": "Point", "coordinates": [ 90.4115552, 23.7854146 ] } },
{ "type": "Feature", "properties": { "full_id": "n5622155087", "osm_id": "5622155087", "osm_type": "node", "healthcare": "pharmacy", "health_fac": null, "descriptio": null, "dispensing": null, "addr_word": null, "name": "Sajib Pharmacy", "addr_subur": "korail", "addr_count": "BD", "addr_city": "dhaka", "phone": null, "addr_stree": null, "name_en": null, "amenity": "pharmacy" }, "geometry": { "type": "Point", "coordinates": [ 90.4112656, 23.7841835 ] } },
{ "type": "Feature", "properties": { "full_id": "n5622155653", "osm_id": "5622155653", "osm_type": "node", "healthcare": "pharmacy", "health_fac": null, "descriptio": null, "dispensing": null, "addr_word": null, "name": "Nur Medical Hall", "addr_subur": "korail", "addr_count": "BD", "addr_city": "dhaka", "phone": null, "addr_stree": null, "name_en": null, "amenity": "pharmacy" }, "geometry": { "type": "Point", "coordinates": [ 90.4116153, 23.7854146 ] } },
{ "type": "Feature", "properties": { "full_id": "n5622157115", "osm_id": "5622157115", "osm_type": "node", "healthcare": "pharmacy", "health_fac": null, "descriptio": null, "dispensing": null, "addr_word": null, "name": "Hazrat Hafsa Pharmacy", "addr_subur": "korail", "addr_count": "BD", "addr_city": "dhaka", "phone": null, "addr_stree": null, "name_en": null, "amenity": "pharmacy" }, "geometry": { "type": "Point", "coordinates": [ 90.4121377, 23.7854053 ] } },
{ "type": "Feature", "properties": { "full_id": "n5622157120", "osm_id": "5622157120", "osm_type": "node", "healthcare": "pharmacy", "health_fac": null, "descriptio": null, "dispensing": null, "addr_word": null, "name": "Hasan Drug House", "addr_subur": null, "addr_count": null, "addr_city": null, "phone": null, "addr_stree": null, "name_en": null, "amenity": "pharmacy" }, "geometry": { "type": "Point", "coordinates": [ 90.4120504, 23.7855536 ] } },
{ "type": "Feature", "properties": { "full_id": "n5622157400", "osm_id": "5622157400", "osm_type": "node", "healthcare": "pharmacy", "health_fac": null, "descriptio": null, "dispensing": null, "addr_word": null, "name": "Shasid Homio Hall", "addr_subur": "korail", "addr_count": "BD", "addr_city": "dhaka", "phone": null, "addr_stree": null, "name_en": null, "amenity": "pharmacy" }, "geometry": { "type": "Point", "coordinates": [ 90.4109098, 23.7863677 ] } },
{ "type": "Feature", "properties": { "full_id": "n5622158821", "osm_id": "5622158821", "osm_type": "node", "healthcare": "pharmacy", "health_fac": null, "descriptio": null, "dispensing": null, "addr_word": null, "name": "Hasan Drug House", "addr_subur": "korail", "addr_count": "BD", "addr_city": "dhaka", "phone": null, "addr_stree": null, "name_en": null, "amenity": "pharmacy" }, "geometry": { "type": "Point", "coordinates": [ 90.4120558, 23.7855117 ] } },
{ "type": "Feature", "properties": { "full_id": "n5622158849", "osm_id": "5622158849", "osm_type": "node", "healthcare": "pharmacy", "health_fac": null, "descriptio": null, "dispensing": null, "addr_word": "19", "name": "MS Drug House And Medicare", "addr_subur": "korail", "addr_count": "BD", "addr_city": "dhaka", "phone": null, "addr_stree": null, "name_en": null, "amenity": "pharmacy" }, "geometry": { "type": "Point", "coordinates": [ 90.4112103, 23.7842425 ] } },
{ "type": "Feature", "properties": { "full_id": "n6571913761", "osm_id": "6571913761", "osm_type": "node", "healthcare": "pharmacy", "health_fac": null, "descriptio": null, "dispensing": "yes", "addr_word": null, "name": "Lazz Pharma Ltd.", "addr_subur": null, "addr_count": null, "addr_city": null, "phone": null, "addr_stree": null, "name_en": null, "amenity": "pharmacy" }, "geometry": { "type": "Point", "coordinates": [ 90.4132105, 23.7802304 ] } },
{ "type": "Feature", "properties": { "full_id": "n6688388152", "osm_id": "6688388152", "osm_type": "node", "healthcare": "pharmacy", "health_fac": null, "descriptio": null, "dispensing": null, "addr_word": null, "name": "Abdul karim kobiraj", "addr_subur": null, "addr_count": null, "addr_city": null, "phone": null, "addr_stree": "Taltola Cumilla Potti road", "name_en": null, "amenity": "pharmacy" }, "geometry": { "type": "Point", "coordinates": [ 90.4111491, 23.7834445 ] } },
{ "type": "Feature", "properties": { "full_id": "n8883113956", "osm_id": "8883113956", "osm_type": "node", "healthcare": "pharmacy", "health_fac": "pharmacy", "descriptio": "Pharmacy", "dispensing": null, "addr_word": null, "name": "Mahmud pharmacy", "addr_subur": null, "addr_count": null, "addr_city": null, "phone": null, "addr_stree": null, "name_en": null, "amenity": "pharmacy" }, "geometry": { "type": "Point", "coordinates": [ 90.4075992, 23.7825732 ] } },
{ "type": "Feature", "properties": { "full_id": "n8883113957", "osm_id": "8883113957", "osm_type": "node", "healthcare": "pharmacy", "health_fac": "pharmacy", "descriptio": "Pharmacy", "dispensing": null, "addr_word": null, "name": "Haji Medicine Korail", "addr_subur": null, "addr_count": null, "addr_city": null, "phone": null, "addr_stree": null, "name_en": null, "amenity": "pharmacy" }, "geometry": { "type": "Point", "coordinates": [ 90.4117053, 23.7828249 ] } },
{ "type": "Feature", "properties": { "full_id": "n8883113958", "osm_id": "8883113958", "osm_type": "node", "healthcare": "pharmacy", "health_fac": "pharmacy", "descriptio": "Pharmacy", "dispensing": null, "addr_word": null, "name": "Haji Medicine Korail", "addr_subur": null, "addr_count": null, "addr_city": null, "phone": null, "addr_stree": null, "name_en": null, "amenity": "pharmacy" }, "geometry": { "type": "Point", "coordinates": [ 90.4106559, 23.7830545 ] } },
{ "type": "Feature", "properties": { "full_id": "n8883113959", "osm_id": "8883113959", "osm_type": "node", "healthcare": "pharmacy", "health_fac": "pharmacy", "descriptio": "Pharmacy", "dispensing": null, "addr_word": null, "name": "Jononi Pharmacy, Ershad school ground, Korail", "addr_subur": null, "addr_count": null, "addr_city": null, "phone": null, "addr_stree": null, "name_en": null, "amenity": "pharmacy" }, "geometry": { "type": "Point", "coordinates": [ 90.4103627, 23.7831499 ] } },
{ "type": "Feature", "properties": { "full_id": "n8883113960", "osm_id": "8883113960", "osm_type": "node", "healthcare": "pharmacy", "health_fac": "pharmacy", "descriptio": "Pharmacy", "dispensing": null, "addr_word": null, "name": "Jononi Pharmacy, Ershad school ground, Korail", "addr_subur": null, "addr_count": null, "addr_city": null, "phone": null, "addr_stree": null, "name_en": null, "amenity": "pharmacy" }, "geometry": { "type": "Point", "coordinates": [ 90.4099893, 23.7832256 ] } },
{ "type": "Feature", "properties": { "full_id": "n8883113961", "osm_id": "8883113961", "osm_type": "node", "healthcare": "pharmacy", "health_fac": "pharmacy", "descriptio": "Pharmacy", "dispensing": null, "addr_word": null, "name": "Khokon Medical Hall", "addr_subur": null, "addr_count": null, "addr_city": null, "phone": null, "addr_stree": null, "name_en": null, "amenity": "pharmacy" }, "geometry": { "type": "Point", "coordinates": [ 90.409614, 23.7831958 ] } },
{ "type": "Feature", "properties": { "full_id": "n8883113962", "osm_id": "8883113962", "osm_type": "node", "healthcare": "pharmacy", "health_fac": "pharmacy", "descriptio": "Pharmacy", "dispensing": null, "addr_word": null, "name": "Zagonnath Pharma", "addr_subur": null, "addr_count": null, "addr_city": null, "phone": null, "addr_stree": null, "name_en": null, "amenity": "pharmacy" }, "geometry": { "type": "Point", "coordinates": [ 90.4104941, 23.7839847 ] } },
{ "type": "Feature", "properties": { "full_id": "n8883113963", "osm_id": "8883113963", "osm_type": "node", "healthcare": "pharmacy", "health_fac": "pharmacy", "descriptio": "Pharmacy", "dispensing": null, "addr_word": null, "name": "Fatema pharmacy", "addr_subur": null, "addr_count": null, "addr_city": null, "phone": null, "addr_stree": null, "name_en": null, "amenity": "pharmacy" }, "geometry": { "type": "Point", "coordinates": [ 90.4111031, 23.784022 ] } },
{ "type": "Feature", "properties": { "full_id": "n8883113964", "osm_id": "8883113964", "osm_type": "node", "healthcare": "pharmacy", "health_fac": "pharmacy", "descriptio": "Pharmacy", "dispensing": null, "addr_word": null, "name": "M S T Care Pharmacy", "addr_subur": null, "addr_count": null, "addr_city": null, "phone": null, "addr_stree": null, "name_en": null, "amenity": "pharmacy" }, "geometry": { "type": "Point", "coordinates": [ 90.4110816, 23.7840224 ] } },
{ "type": "Feature", "properties": { "full_id": "n8883113965", "osm_id": "8883113965", "osm_type": "node", "healthcare": "pharmacy", "health_fac": "pharmacy", "descriptio": "Pharmacy", "dispensing": null, "addr_word": null, "name": "JIC Health care centre & Pharma", "addr_subur": null, "addr_count": null, "addr_city": null, "phone": null, "addr_stree": null, "name_en": null, "amenity": "pharmacy" }, "geometry": { "type": "Point", "coordinates": [ 90.4104152, 23.783447 ] } },
{ "type": "Feature", "properties": { "full_id": "n8883113966", "osm_id": "8883113966", "osm_type": "node", "healthcare": "pharmacy", "health_fac": "pharmacy", "descriptio": "Pharmacy", "dispensing": null, "addr_word": null, "name": "Munnaf Medical", "addr_subur": null, "addr_count": null, "addr_city": null, "phone": null, "addr_stree": null, "name_en": null, "amenity": "pharmacy" }, "geometry": { "type": "Point", "coordinates": [ 90.4096744, 23.7838049 ] } },
{ "type": "Feature", "properties": { "full_id": "n8883113967", "osm_id": "8883113967", "osm_type": "node", "healthcare": "pharmacy", "health_fac": "pharmacy", "descriptio": "Pharmacy", "dispensing": null, "addr_word": null, "name": "Nasir Medical Hall", "addr_subur": null, "addr_count": null, "addr_city": null, "phone": null, "addr_stree": null, "name_en": null, "amenity": "pharmacy" }, "geometry": { "type": "Point", "coordinates": [ 90.406929, 23.7838428 ] } },
{ "type": "Feature", "properties": { "full_id": "n8883113968", "osm_id": "8883113968", "osm_type": "node", "healthcare": "pharmacy", "health_fac": "pharmacy", "descriptio": "Pharmacy", "dispensing": null, "addr_word": null, "name": "Rifat pharmacy", "addr_subur": null, "addr_count": null, "addr_city": null, "phone": null, "addr_stree": null, "name_en": null, "amenity": "pharmacy" }, "geometry": { "type": "Point", "coordinates": [ 90.4066415, 23.7835654 ] } },
{ "type": "Feature", "properties": { "full_id": "n8883113969", "osm_id": "8883113969", "osm_type": "node", "healthcare": "pharmacy", "health_fac": "pharmacy", "descriptio": "Pharmacy", "dispensing": null, "addr_word": null, "name": "Mahabub Pharmacy, Korail", "addr_subur": null, "addr_count": null, "addr_city": null, "phone": null, "addr_stree": null, "name_en": null, "amenity": "pharmacy" }, "geometry": { "type": "Point", "coordinates": [ 90.4130679, 23.7845711 ] } },
{ "type": "Feature", "properties": { "full_id": "n8883113970", "osm_id": "8883113970", "osm_type": "node", "healthcare": "pharmacy", "health_fac": "pharmacy", "descriptio": "Pharmacy", "dispensing": null, "addr_word": null, "name": "MS Pharmacy", "addr_subur": null, "addr_count": null, "addr_city": null, "phone": null, "addr_stree": null, "name_en": null, "amenity": "pharmacy" }, "geometry": { "type": "Point", "coordinates": [ 90.4113384, 23.7841418 ] } },
{ "type": "Feature", "properties": { "full_id": "n8883113971", "osm_id": "8883113971", "osm_type": "node", "healthcare": "pharmacy", "health_fac": "pharmacy", "descriptio": "Pharmacy", "dispensing": null, "addr_word": null, "name": "Refat Medical Hall", "addr_subur": null, "addr_count": null, "addr_city": null, "phone": null, "addr_stree": null, "name_en": null, "amenity": "pharmacy" }, "geometry": { "type": "Point", "coordinates": [ 90.4117932, 23.7841759 ] } },
{ "type": "Feature", "properties": { "full_id": "n8883113972", "osm_id": "8883113972", "osm_type": "node", "healthcare": "pharmacy", "health_fac": "pharmacy", "descriptio": "Pharmacy", "dispensing": null, "addr_word": null, "name": "Sajib pharmacy", "addr_subur": null, "addr_count": null, "addr_city": null, "phone": null, "addr_stree": null, "name_en": null, "amenity": "pharmacy" }, "geometry": { "type": "Point", "coordinates": [ 90.4112317, 23.7841747 ] } },
{ "type": "Feature", "properties": { "full_id": "n8883113973", "osm_id": "8883113973", "osm_type": "node", "healthcare": "pharmacy", "health_fac": "pharmacy", "descriptio": "Pharmacy", "dispensing": null, "addr_word": null, "name": "Kumilla Khan Pharmacy, Boubazar, Korail", "addr_subur": null, "addr_count": null, "addr_city": null, "phone": null, "addr_stree": null, "name_en": null, "amenity": "pharmacy" }, "geometry": { "type": "Point", "coordinates": [ 90.4104169, 23.7845427 ] } },
{ "type": "Feature", "properties": { "full_id": "n8883113974", "osm_id": "8883113974", "osm_type": "node", "healthcare": "pharmacy", "health_fac": "pharmacy", "descriptio": "Pharmacy", "dispensing": null, "addr_word": null, "name": "Hamela khatun pharmacy and medicare", "addr_subur": null, "addr_count": null, "addr_city": null, "phone": null, "addr_stree": null, "name_en": null, "amenity": "pharmacy" }, "geometry": { "type": "Point", "coordinates": [ 90.410469, 23.7841799 ] } },
{ "type": "Feature", "properties": { "full_id": "n8883113975", "osm_id": "8883113975", "osm_type": "node", "healthcare": "pharmacy", "health_fac": "pharmacy", "descriptio": "Pharmacy", "dispensing": null, "addr_word": null, "name": "Ashraf Medical Hall", "addr_subur": null, "addr_count": null, "addr_city": null, "phone": null, "addr_stree": null, "name_en": null, "amenity": "pharmacy" }, "geometry": { "type": "Point", "coordinates": [ 90.410309, 23.7845387 ] } },
{ "type": "Feature", "properties": { "full_id": "n8883113976", "osm_id": "8883113976", "osm_type": "node", "healthcare": "pharmacy", "health_fac": "pharmacy", "descriptio": "Pharmacy", "dispensing": null, "addr_word": null, "name": "Osman Pharmacy", "addr_subur": null, "addr_count": null, "addr_city": null, "phone": null, "addr_stree": null, "name_en": null, "amenity": "pharmacy" }, "geometry": { "type": "Point", "coordinates": [ 90.413083, 23.7848785 ] } },
{ "type": "Feature", "properties": { "full_id": "n8883113977", "osm_id": "8883113977", "osm_type": "node", "healthcare": "pharmacy", "health_fac": "pharmacy", "descriptio": "Pharmacy", "dispensing": null, "addr_word": null, "name": "S. Alam Pharmacy", "addr_subur": null, "addr_count": null, "addr_city": null, "phone": null, "addr_stree": null, "name_en": null, "amenity": "pharmacy" }, "geometry": { "type": "Point", "coordinates": [ 90.4121165, 23.7849758 ] } },
{ "type": "Feature", "properties": { "full_id": "n8883113978", "osm_id": "8883113978", "osm_type": "node", "healthcare": "pharmacy", "health_fac": "pharmacy", "descriptio": "Pharmacy", "dispensing": null, "addr_word": null, "name": "Kazi Pharmacy, Korail", "addr_subur": null, "addr_count": null, "addr_city": null, "phone": null, "addr_stree": null, "name_en": null, "amenity": "pharmacy" }, "geometry": { "type": "Point", "coordinates": [ 90.4129628, 23.7854897 ] } },
{ "type": "Feature", "properties": { "full_id": "n8883113979", "osm_id": "8883113979", "osm_type": "node", "healthcare": "pharmacy", "health_fac": "pharmacy", "descriptio": "Pharmacy", "dispensing": null, "addr_word": null, "name": "ma o Babar doa Medical hall", "addr_subur": null, "addr_count": null, "addr_city": null, "phone": null, "addr_stree": null, "name_en": null, "amenity": "pharmacy" }, "geometry": { "type": "Point", "coordinates": [ 90.4115465, 23.7854456 ] } },
{ "type": "Feature", "properties": { "full_id": "n8883113980", "osm_id": "8883113980", "osm_type": "node", "healthcare": "pharmacy", "health_fac": "pharmacy", "descriptio": "Pharmacy", "dispensing": null, "addr_word": null, "name": "Amin pharmacy", "addr_subur": null, "addr_count": null, "addr_city": null, "phone": null, "addr_stree": null, "name_en": null, "amenity": "pharmacy" }, "geometry": { "type": "Point", "coordinates": [ 90.4102146, 23.7854416 ] } },
{ "type": "Feature", "properties": { "full_id": "n8883113981", "osm_id": "8883113981", "osm_type": "node", "healthcare": "pharmacy", "health_fac": "pharmacy", "descriptio": "Pharmacy", "dispensing": null, "addr_word": null, "name": "Patowary Pharmacy", "addr_subur": null, "addr_count": null, "addr_city": null, "phone": null, "addr_stree": null, "name_en": null, "amenity": "pharmacy" }, "geometry": { "type": "Point", "coordinates": [ 90.4108956, 23.7854267 ] } },
{ "type": "Feature", "properties": { "full_id": "n8883113982", "osm_id": "8883113982", "osm_type": "node", "healthcare": "pharmacy", "health_fac": "pharmacy", "descriptio": "Pharmacy", "dispensing": null, "addr_word": null, "name": "Maaer doya Pharmacy, Korail", "addr_subur": null, "addr_count": null, "addr_city": null, "phone": null, "addr_stree": null, "name_en": null, "amenity": "pharmacy" }, "geometry": { "type": "Point", "coordinates": [ 90.4060363, 23.7857082 ] } },
{ "type": "Feature", "properties": { "full_id": "n8883113983", "osm_id": "8883113983", "osm_type": "node", "healthcare": "pharmacy", "health_fac": "pharmacy", "descriptio": "Pharmacy", "dispensing": null, "addr_word": null, "name": "Sheba Pharmacy, Korail", "addr_subur": null, "addr_count": null, "addr_city": null, "phone": null, "addr_stree": null, "name_en": null, "amenity": "pharmacy" }, "geometry": { "type": "Point", "coordinates": [ 90.4061038, 23.7857848 ] } },
{ "type": "Feature", "properties": { "full_id": "n8883113984", "osm_id": "8883113984", "osm_type": "node", "healthcare": "pharmacy", "health_fac": "pharmacy", "descriptio": "Pharmacy", "dispensing": null, "addr_word": null, "name": "Rafshan pharmacy", "addr_subur": null, "addr_count": null, "addr_city": null, "phone": null, "addr_stree": null, "name_en": null, "amenity": "pharmacy" }, "geometry": { "type": "Point", "coordinates": [ 90.4124035, 23.7865499 ] } },
{ "type": "Feature", "properties": { "full_id": "n8883113985", "osm_id": "8883113985", "osm_type": "node", "healthcare": "pharmacy", "health_fac": "pharmacy", "descriptio": "Pharmacy", "dispensing": null, "addr_word": null, "name": "Hasan Drug House, Jamai bazar, Korail", "addr_subur": null, "addr_count": null, "addr_city": null, "phone": null, "addr_stree": null, "name_en": null, "amenity": "pharmacy" }, "geometry": { "type": "Point", "coordinates": [ 90.4130693, 23.7867075 ] } },
{ "type": "Feature", "properties": { "full_id": "n8883113986", "osm_id": "8883113986", "osm_type": "node", "healthcare": "pharmacy", "health_fac": "pharmacy", "descriptio": "Pharmacy", "dispensing": null, "addr_word": null, "name": "Liton Pharmacy, Boubazar, Korail", "addr_subur": null, "addr_count": null, "addr_city": null, "phone": null, "addr_stree": null, "name_en": null, "amenity": "pharmacy" }, "geometry": { "type": "Point", "coordinates": [ 90.4105275, 23.7867309 ] } },
{ "type": "Feature", "properties": { "full_id": "n8883113987", "osm_id": "8883113987", "osm_type": "node", "healthcare": "pharmacy", "health_fac": "pharmacy", "descriptio": "Pharmacy", "dispensing": null, "addr_word": null, "name": "Kawsar Pharmacy, Korail", "addr_subur": null, "addr_count": null, "addr_city": null, "phone": null, "addr_stree": null, "name_en": null, "amenity": "pharmacy" }, "geometry": { "type": "Point", "coordinates": [ 90.4105684, 23.786191 ] } },
{ "type": "Feature", "properties": { "full_id": "n8883113988", "osm_id": "8883113988", "osm_type": "node", "healthcare": "pharmacy", "health_fac": "pharmacy", "descriptio": "Pharmacy", "dispensing": null, "addr_word": null, "name": "Litu Pharmacy", "addr_subur": null, "addr_count": null, "addr_city": null, "phone": null, "addr_stree": null, "name_en": null, "amenity": "pharmacy" }, "geometry": { "type": "Point", "coordinates": [ 90.4105087, 23.786604 ] } },
{ "type": "Feature", "properties": { "full_id": "n8883113989", "osm_id": "8883113989", "osm_type": "node", "healthcare": "pharmacy", "health_fac": "pharmacy", "descriptio": "Pharmacy", "dispensing": null, "addr_word": null, "name": "Mir Medicine Centre", "addr_subur": null, "addr_count": null, "addr_city": null, "phone": null, "addr_stree": null, "name_en": null, "amenity": "pharmacy" }, "geometry": { "type": "Point", "coordinates": [ 90.4107529, 23.7863938 ] } },
{ "type": "Feature", "properties": { "full_id": "n8883113990", "osm_id": "8883113990", "osm_type": "node", "healthcare": "pharmacy", "health_fac": "pharmacy", "descriptio": "Pharmacy", "dispensing": null, "addr_word": null, "name": "Sheikh Drugs House, Korail", "addr_subur": null, "addr_count": null, "addr_city": null, "phone": null, "addr_stree": null, "name_en": null, "amenity": "pharmacy" }, "geometry": { "type": "Point", "coordinates": [ 90.4104234, 23.7865687 ] } },
{ "type": "Feature", "properties": { "full_id": "n8883113991", "osm_id": "8883113991", "osm_type": "node", "healthcare": "pharmacy", "health_fac": "pharmacy", "descriptio": "Pharmacy", "dispensing": null, "addr_word": null, "name": "Sheikh Drugs House, Korail", "addr_subur": null, "addr_count": null, "addr_city": null, "phone": null, "addr_stree": null, "name_en": null, "amenity": "pharmacy" }, "geometry": { "type": "Point", "coordinates": [ 90.4104113, 23.7865285 ] } },
{ "type": "Feature", "properties": { "full_id": "n8883113992", "osm_id": "8883113992", "osm_type": "node", "healthcare": "pharmacy", "health_fac": "pharmacy", "descriptio": "Pharmacy", "dispensing": null, "addr_word": null, "name": "R M Pharmacy, Korail", "addr_subur": null, "addr_count": null, "addr_city": null, "phone": null, "addr_stree": null, "name_en": null, "amenity": "pharmacy" }, "geometry": { "type": "Point", "coordinates": [ 90.4104179, 23.786606 ] } },
{ "type": "Feature", "properties": { "full_id": "n8883113993", "osm_id": "8883113993", "osm_type": "node", "healthcare": "pharmacy", "health_fac": "pharmacy", "descriptio": "Pharmacy", "dispensing": null, "addr_word": null, "name": "Nuo Dental kear", "addr_subur": null, "addr_count": null, "addr_city": null, "phone": null, "addr_stree": null, "name_en": null, "amenity": "pharmacy" }, "geometry": { "type": "Point", "coordinates": [ 90.408565, 23.7826656 ] } },
{ "type": "Feature", "properties": { "full_id": "n8883113994", "osm_id": "8883113994", "osm_type": "node", "healthcare": "pharmacy", "health_fac": "pharmacy", "descriptio": "Pharmacy", "dispensing": null, "addr_word": null, "name": "Sheikh Drugs House, Korail", "addr_subur": null, "addr_count": null, "addr_city": null, "phone": null, "addr_stree": null, "name_en": null, "amenity": "pharmacy" }, "geometry": { "type": "Point", "coordinates": [ 90.4104588, 23.7865548 ] } },
{ "type": "Feature", "properties": { "full_id": "n8883113995", "osm_id": "8883113995", "osm_type": "node", "healthcare": "pharmacy", "health_fac": "pharmacy", "descriptio": "Pharmacy", "dispensing": null, "addr_word": null, "name": "Chandpur Pharma", "addr_subur": null, "addr_count": null, "addr_city": null, "phone": null, "addr_stree": null, "name_en": null, "amenity": "pharmacy" }, "geometry": { "type": "Point", "coordinates": [ 90.4105357, 23.7865337 ] } }
]
}
